City_ID,City,Country,Lat,Lng,Max Temp,Min Temp,Humidity,Cloudiness,Wind Speed,Current Description,Date
0,Rikitea,PF,-23.1203,-134.9692,79.03,79.03,74,0,12.84,clear sky,2021-01-17 23:58:32
1,Bathsheba,BB,13.2167,-59.5167,78.8,78.8,73,20,18.41,few clouds,2021-01-17 23:58:32
2,Georgetown,MY,5.4112,100.3354,78.8,77.0,69,20,5.75,few clouds,2021-01-17 23:58:32
3,Hobart,AU,-42.8794,147.3294,64.4,61.0,52,75,23.02,broken clouds,2021-01-17 23:56:12
4,Provideniya,RU,64.3833,-173.3,1.4,1.4,71,90,8.95,light snow,2021-01-17 23:58:32
5,Vaini,TO,-21.2,-175.2,86.0,86.0,74,75,13.8,broken clouds,2021-01-17 23:58:32
6,Suratgarh,IN,29.3167,73.9,51.24,51.24,57,0,9.69,clear sky,2021-01-17 23:58:32
7,Saint-Philippe,RE,-21.3585,55.7679,77.0,66.0,73,0,8.05,clear sky,2021-01-17 23:58:32
8,Kaitangata,NZ,-46.2817,169.8464,64.0,64.0,37,65,8.99,broken clouds,2021-01-17 23:58:32
9,Punta Arenas,CL,-53.15,-70.9167,59.0,59.0,58,0,43.73,clear sky,2021-01-17 23:58:32
10,Sibolga,ID,1.7427,98.7792,77.61,77.61,75,98,2.57,moderate rain,2021-01-17 23:58:33
11,Albany,US,42.6001,-73.9662,37.0,34.0,78,98,1.01,overcast clouds,2021-01-17 23:54:25
12,Alice Springs,AU,-23.7,133.8833,77.0,77.0,18,0,14.97,clear sky,2021-01-17 23:58:33
13,Tasiilaq,GL,65.6145,-37.6368,17.6,17.6,73,0,6.91,clear sky,2021-01-17 23:58:33
14,Tanout,NE,14.9709,8.8879,66.04,66.04,25,72,16.84,broken clouds,2021-01-17 23:58:33
15,Luganville,VU,-15.5333,167.1667,86.83,86.83,69,34,9.64,scattered clouds,2021-01-17 23:58:33
16,Bambous Virieux,MU,-20.3428,57.7575,79.0,78.8,83,40,11.5,scattered clouds,2021-01-17 23:58:33
17,Betare Oya,CM,5.6,14.0833,66.6,66.6,32,62,4.18,broken clouds,2021-01-17 23:58:33
18,Gillette,US,44.2911,-105.5022,39.2,33.01,48,90,11.5,overcast clouds,2021-01-17 23:58:34
19,Kavieng,PG,-2.5744,150.7967,85.12,85.12,72,44,18.77,scattered clouds,2021-01-17 23:58:34
20,Ushuaia,AR,-54.8,-68.3,51.8,51.8,82,75,4.61,broken clouds,2021-01-17 23:58:34
21,Bluff,NZ,-46.6,168.3333,62.01,62.01,52,80,8.99,broken clouds,2021-01-17 23:58:34
22,Hokitika,NZ,-42.7167,170.9667,57.74,57.74,73,69,13.53,light rain,2021-01-17 23:58:34
23,New Norfolk,AU,-42.7826,147.0587,63.0,55.0,69,96,5.99,overcast clouds,2021-01-17 23:58:34
24,Hammerfest,NO,70.6634,23.6821,35.6,35.6,87,75,9.22,broken clouds,2021-01-17 23:58:34
25,Keti Bandar,PK,24.1447,67.4497,64.22,64.22,81,0,9.13,clear sky,2021-01-17 23:58:34
26,Jamestown,US,42.097,-79.2353,33.01,30.2,93,90,6.91,light snow,2021-01-17 23:58:34
27,Zabid,YE,14.1951,43.3152,72.66,72.66,85,44,4.05,scattered clouds,2021-01-17 23:58:35
28,Rutland,US,43.6167,-73.0162,35.01,25.0,79,67,1.99,broken clouds,2021-01-17 23:58:35
29,Busselton,AU,-33.65,115.3333,73.99,73.99,49,15,5.01,few clouds,2021-01-17 23:58:35
30,Tezu,IN,27.9167,96.1667,60.42,60.42,45,2,3.65,clear sky,2021-01-17 23:58:35
31,Marawi,PH,7.9986,124.2928,75.99,75.99,89,98,5.01,light rain,2021-01-17 23:58:35
32,Bethel,US,41.3712,-73.414,39.2,39.0,56,90,5.75,overcast clouds,2021-01-17 23:58:35
33,Ishinomaki,JP,38.4167,141.3,28.4,28.4,74,40,5.75,scattered clouds,2021-01-17 23:58:35
34,Ponta Delgada,PT,37.7333,-25.6667,61.0,60.8,88,40,20.71,scattered clouds,2021-01-17 23:58:35
35,Kapaa,US,22.0752,-159.319,82.99,82.4,65,1,14.97,light rain,2021-01-17 23:58:35
36,Longyearbyen,SJ,78.2186,15.6401,19.4,19.4,68,75,31.07,broken clouds,2021-01-17 23:58:35
37,Cape Town,ZA,-33.9258,18.4232,69.8,64.99,64,0,13.8,clear sky,2021-01-17 23:56:49
38,Atar,MR,20.5169,-13.0499,63.79,63.79,24,91,15.66,overcast clouds,2021-01-17 23:58:36
39,Bredasdorp,ZA,-34.5322,20.0403,66.2,66.2,82,76,6.91,broken clouds,2021-01-17 23:58:36
40,Mahebourg,MU,-20.4081,57.7,78.8,78.8,83,40,11.5,scattered clouds,2021-01-17 23:58:36
41,Ancud,CL,-41.8697,-73.8203,63.0,62.6,67,0,6.91,clear sky,2021-01-17 23:58:36
42,Bamenda,CM,5.9527,10.1582,63.03,63.03,34,45,1.07,scattered clouds,2021-01-17 23:58:36
43,Gharo,PK,24.7424,67.5856,55.4,55.4,88,0,6.91,smoke,2021-01-17 23:58:36
44,Kununurra,AU,-15.7667,128.7333,87.8,87.8,48,49,8.05,scattered clouds,2021-01-17 23:58:36
45,Saskylakh,RU,71.9167,114.0833,-28.44,-28.44,84,61,6.62,broken clouds,2021-01-17 23:58:36
46,Alofi,NU,-19.0595,-169.9187,87.8,87.8,58,75,9.22,broken clouds,2021-01-17 23:58:36
47,Hithadhoo,MV,-0.6,73.0833,80.65,80.65,70,77,7.0,broken clouds,2021-01-17 23:58:37
48,Santa Isabel Do Rio Negro,BR,-0.4139,-65.0192,76.42,76.42,86,12,0.6,few clouds,2021-01-17 23:58:37
49,Howell,US,42.6073,-83.9294,32.0,32.0,100,90,3.0,snow,2021-01-17 23:55:57
50,Mataura,NZ,-46.1927,168.8643,62.01,62.01,52,52,8.99,light rain,2021-01-17 23:58:37
51,Riyadh,SA,24.6877,46.7219,60.8,57.2,29,0,4.45,clear sky,2021-01-17 23:54:12
52,Wuda,CN,39.4994,106.7117,18.54,18.54,71,0,1.54,clear sky,2021-01-17 23:58:37
53,Atuona,PF,-9.8,-139.0333,78.58,78.58,78,40,14.07,scattered clouds,2021-01-17 23:58:37
54,Kamenka,RU,51.3223,42.7678,-0.99,-0.99,87,100,7.16,overcast clouds,2021-01-17 23:58:37
55,Avarua,CK,-21.2078,-159.775,86.0,86.0,66,69,9.22,broken clouds,2021-01-17 23:58:37
56,Kontagora,NG,10.3999,5.4695,71.6,71.6,19,19,5.99,few clouds,2021-01-17 23:58:37
57,Tuktoyaktuk,CA,69.4541,-133.0374,-4.0,-4.0,84,90,10.36,overcast clouds,2021-01-17 23:58:38
58,Beyneu,KZ,45.3167,55.2,32.61,32.61,95,27,14.0,scattered clouds,2021-01-17 23:58:38
59,Fairbanks,US,64.8378,-147.7164,3.2,3.2,85,1,2.37,clear sky,2021-01-17 23:57:41
60,Pacific Grove,US,36.6177,-121.9166,80.6,68.0,49,1,5.75,clear sky,2021-01-17 23:58:38
61,Castro,BR,-24.7911,-50.0119,65.59,65.59,97,100,7.65,light rain,2021-01-17 23:58:22
62,Kutum,SD,14.2,24.6667,54.21,54.21,35,0,8.01,clear sky,2021-01-17 23:58:38
63,Lata,PT,40.1629,-8.3327,48.99,37.4,100,20,4.61,mist,2021-01-17 23:58:38
64,Faanui,PF,-16.4833,-151.75,82.0,82.0,74,0,13.38,clear sky,2021-01-17 23:58:38
65,Fortuna,US,40.5982,-124.1573,57.99,55.4,82,1,10.36,clear sky,2021-01-17 23:58:38
66,Mar Del Plata,AR,-38.0023,-57.5575,63.0,62.01,72,75,11.5,broken clouds,2021-01-17 23:55:24
67,San Cristobal,VE,7.7669,-72.225,82.4,82.4,65,40,6.91,scattered clouds,2021-01-17 23:58:38
68,Mattru,SL,7.6244,-11.8332,73.11,73.11,95,0,1.66,clear sky,2021-01-17 23:58:39
69,Sao Jose Da Coroa Grande,BR,-8.8978,-35.1478,77.25,77.25,83,1,10.31,clear sky,2021-01-17 23:58:39
70,Lavrentiya,RU,65.5833,-171.0,-11.31,-11.31,82,100,9.13,overcast clouds,2021-01-17 23:58:39
71,Sitka,US,57.0531,-135.33,42.8,42.8,75,75,10.36,moderate rain,2021-01-17 23:58:39
72,Salinopolis,BR,-0.6136,-47.3561,79.48,79.48,83,97,10.04,light rain,2021-01-17 23:58:39
73,Araguari,BR,-18.6472,-48.1872,68.45,68.45,89,100,2.46,light rain,2021-01-17 23:58:39
74,Hilo,US,19.7297,-155.09,82.4,70.0,57,90,5.75,light rain,2021-01-17 23:54:47
75,East London,ZA,-33.0153,27.9116,69.91,69.91,71,94,3.78,overcast clouds,2021-01-17 23:58:39
76,Carnarvon,AU,-24.8667,113.6333,82.4,82.4,74,98,3.44,overcast clouds,2021-01-17 23:58:39
77,Austin,US,30.2672,-97.7431,62.01,57.99,31,14,7.0,few clouds,2021-01-17 23:57:50
78,Sabang,ID,5.8933,95.3214,81.61,81.61,76,47,25.61,scattered clouds,2021-01-17 23:58:40
79,Goulburn,AU,-34.75,149.7167,73.99,71.01,41,1,6.44,clear sky,2021-01-17 23:54:28
80,Poplar Bluff,US,36.757,-90.3929,44.6,44.01,42,90,5.75,overcast clouds,2021-01-17 23:58:40
81,Qaanaaq,GL,77.484,-69.3632,-2.83,-2.83,74,0,5.61,clear sky,2021-01-17 23:58:40
82,Hermanus,ZA,-34.4187,19.2345,68.0,68.0,77,7,8.01,clear sky,2021-01-17 23:58:40
83,Srednekolymsk,RU,67.45,153.6833,-41.49,-41.49,81,38,2.44,scattered clouds,2021-01-17 23:58:40
84,Butaritari,KI,3.0707,172.7902,80.67,80.67,76,62,19.22,broken clouds,2021-01-17 23:58:40
85,Mehran,IR,33.1222,46.1646,39.2,39.2,87,40,2.3,scattered clouds,2021-01-17 23:58:40
86,Bengkulu,ID,-3.8004,102.2655,76.08,76.08,82,100,5.32,light rain,2021-01-17 23:58:40
87,Zhanakorgan,KZ,43.9098,67.2495,35.38,35.38,78,100,4.59,overcast clouds,2021-01-17 23:58:41
88,Presidente Medici,BR,-11.1753,-61.9014,74.35,74.35,93,97,2.64,light rain,2021-01-17 23:58:41
89,Kodiak,US,57.79,-152.4072,39.2,39.2,70,90,17.27,overcast clouds,2021-01-17 23:54:43
90,Kolodeznyy,RU,51.3333,39.1833,1.4,1.4,78,0,2.24,clear sky,2021-01-17 23:58:41
91,Namibe,AO,-15.1961,12.1522,72.68,72.68,76,93,9.42,overcast clouds,2021-01-17 23:58:41
92,Pokrovsk,UA,48.282,37.1758,11.08,11.08,96,100,9.91,snow,2021-01-17 23:58:41
93,Nome,US,64.5011,-165.4064,7.0,3.2,85,1,5.48,clear sky,2021-01-17 23:53:45
94,Lesnoy,RU,57.6198,63.0784,-2.43,-2.43,92,78,7.81,broken clouds,2021-01-17 23:58:41
95,Port Elizabeth,ZA,-33.918,25.5701,66.2,66.2,82,75,2.3,broken clouds,2021-01-17 23:58:41
96,Nikolskoye,RU,59.7035,30.7861,18.0,15.01,93,75,4.47,snow,2021-01-17 23:58:41
97,Mulanje,MW,-16.0316,35.5,73.89,73.89,75,100,3.51,light rain,2021-01-17 23:58:42
98,Khatanga,RU,71.9667,102.5,-25.89,-25.89,81,0,14.09,clear sky,2021-01-17 23:58:42
99,Hudiksvall,SE,61.729,17.1036,18.0,18.0,97,11,1.99,few clouds,2021-01-17 23:58:42
100,Lebu,CL,-37.6167,-73.65,57.61,57.61,81,0,20.58,clear sky,2021-01-17 23:58:42
101,Flinders,AU,-34.5833,150.8552,80.01,77.0,58,10,1.99,clear sky,2021-01-17 23:58:42
102,Ziezmariai,LT,54.8,24.45,-4.0,-5.8,77,90,1.14,light snow,2021-01-17 23:58:42
103,Laramie,US,41.3114,-105.5911,35.6,33.01,44,75,20.71,broken clouds,2021-01-17 23:58:42
104,Opuwo,NA,-18.0607,13.84,66.54,66.54,60,100,4.72,overcast clouds,2021-01-17 23:58:42
105,Nanortalik,GL,60.1432,-45.2371,26.92,26.92,93,100,5.21,overcast clouds,2021-01-17 23:58:43
106,Sur,OM,22.5667,59.5289,66.9,66.9,57,2,4.14,clear sky,2021-01-17 23:58:43
107,Victoria,HK,22.2855,114.1577,54.0,46.0,51,60,1.01,broken clouds,2021-01-17 23:55:25
108,Los Llanos De Aridane,ES,28.6585,-17.9182,64.4,64.4,63,75,6.91,broken clouds,2021-01-17 23:58:43
109,Korla,CN,41.7597,86.1469,13.96,13.96,83,21,1.14,few clouds,2021-01-17 23:58:43
110,Tubmanburg,LR,6.8708,-10.8172,73.4,73.4,94,0,1.88,clear sky,2021-01-17 23:58:43
111,Isangel,VU,-19.55,169.2667,86.0,86.0,84,40,6.91,scattered clouds,2021-01-17 23:58:43
112,Port Alfred,ZA,-33.5906,26.891,66.0,66.0,88,65,6.76,broken clouds,2021-01-17 23:58:44
113,General Roca,AR,-39.0333,-67.5833,89.6,89.6,25,0,3.44,clear sky,2021-01-17 23:58:44
114,Puerto Escondido,MX,15.85,-97.0667,80.6,80.6,69,40,2.19,scattered clouds,2021-01-17 23:58:44
115,San Jose,US,37.3394,-121.895,77.0,71.6,22,20,4.61,few clouds,2021-01-17 23:53:49
116,Yellowknife,CA,62.456,-114.3525,1.4,1.0,85,90,5.75,light snow,2021-01-17 23:58:44
117,Saint George,US,37.1041,-113.5841,61.0,59.0,18,1,0.43,clear sky,2021-01-17 23:58:44
118,Leshukonskoye,RU,64.8989,45.7622,-9.06,-9.06,91,70,3.56,broken clouds,2021-01-17 23:58:44
119,Constitucion,CL,-35.3333,-72.4167,61.48,61.48,71,0,15.17,clear sky,2021-01-17 23:58:44
120,Pasinler,TR,39.9803,41.6764,30.2,30.2,93,75,2.77,light snow,2021-01-17 23:58:44
121,Maneadero,MX,31.7167,-116.5667,64.0,64.0,83,0,4.0,clear sky,2021-01-17 23:58:45
122,Gat,IL,31.61,34.7642,53.01,48.99,100,71,8.01,light rain,2021-01-17 23:58:45
123,Kahului,US,20.8947,-156.47,80.6,70.0,65,75,9.22,moderate rain,2021-01-17 23:54:12
124,Cidreira,BR,-30.1811,-50.2056,73.76,73.76,93,100,13.44,moderate rain,2021-01-17 23:58:45
125,North Platte,US,41.1239,-100.7654,42.8,42.8,31,1,4.61,clear sky,2021-01-17 23:58:45
126,Greeley,US,40.4233,-104.7091,44.6,37.99,33,75,6.91,broken clouds,2021-01-17 23:56:01
127,Caucaia,BR,-3.7361,-38.6531,82.4,81.0,69,20,10.36,few clouds,2021-01-17 23:58:45
128,Pevek,RU,69.7008,170.3133,-28.97,-28.97,86,47,4.05,scattered clouds,2021-01-17 23:58:45
129,Ramos,PH,15.6833,120.6333,75.2,75.2,73,75,2.3,broken clouds,2021-01-17 23:58:45
130,Cherskiy,RU,68.75,161.3,-33.75,-33.75,83,85,2.66,overcast clouds,2021-01-17 23:58:45
131,Broome,US,42.2506,-75.833,36.0,32.0,69,90,12.66,overcast clouds,2021-01-17 23:58:45
132,Rabat,MA,33.9911,-6.8401,42.8,42.8,100,41,3.44,mist,2021-01-17 23:58:46
133,Las Vegas,US,36.175,-115.1372,69.8,63.0,15,1,6.91,clear sky,2021-01-17 23:57:30
134,Avera,US,33.194,-82.5271,44.6,39.2,57,1,3.44,clear sky,2021-01-17 23:58:46
135,Qasigiannguit,GL,68.8193,-51.1922,21.2,21.2,79,75,13.8,broken clouds,2021-01-17 23:58:46
136,Talnakh,RU,69.4865,88.3972,-7.26,-7.26,78,100,4.25,overcast clouds,2021-01-17 23:58:46
137,Yumen,CN,40.2833,97.2,16.07,16.07,76,0,13.27,clear sky,2021-01-17 23:58:46
138,Araouane,ML,18.9048,-3.5265,62.46,62.46,25,34,13.56,scattered clouds,2021-01-17 23:58:46
139,Det Udom,TH,14.906,105.0784,59.0,59.0,77,0,10.36,clear sky,2021-01-17 23:58:46
140,Geraldton,AU,-28.7667,114.6,87.8,87.8,45,82,6.91,broken clouds,2021-01-17 23:58:46
141,Bor,RU,56.3567,44.0669,-18.4,-18.4,83,9,0.72,mist,2021-01-17 23:58:46
142,Husavik,IS,66.0449,-17.3389,32.0,32.0,93,90,3.44,moderate rain,2021-01-17 23:58:47
143,Upernavik,GL,72.7868,-56.1549,12.92,12.92,86,69,9.44,broken clouds,2021-01-17 23:58:47
144,Kavaratti,IN,10.5669,72.642,81.79,81.79,75,0,7.52,clear sky,2021-01-17 23:58:47
145,Leo,BF,11.1,-2.1,72.41,72.41,19,80,7.49,broken clouds,2021-01-17 23:58:47
146,Aklavik,CA,68.2191,-135.0107,-5.8,-7.6,84,89,1.14,overcast clouds,2021-01-17 23:58:47
147,Dikson,RU,73.5069,80.5464,-23.58,-23.58,84,45,19.71,scattered clouds,2021-01-17 23:58:47
148,Verkhnevilyuysk,RU,63.4453,120.3167,-35.41,-35.41,82,100,3.49,overcast clouds,2021-01-17 23:58:47
149,Puerto Ayora,EC,-0.7393,-90.3518,78.01,78.01,89,45,3.0,scattered clouds,2021-01-17 23:58:47
150,Sorland,NO,67.667,12.6934,35.96,35.96,79,15,5.61,few clouds,2021-01-17 23:58:48
151,Permet,AL,40.2336,20.3517,28.99,28.99,74,84,3.44,broken clouds,2021-01-17 23:58:48
152,Karratha,AU,-20.7377,116.8463,96.44,96.44,33,48,13.13,scattered clouds,2021-01-17 23:58:48
153,Limpapa,PH,7.1197,121.9106,77.0,77.0,94,90,4.61,light rain,2021-01-17 23:58:48
154,Jawhar,SO,2.7809,45.5005,71.31,71.31,84,79,11.18,broken clouds,2021-01-17 23:58:48
155,Beringovskiy,RU,63.05,179.3167,-13.23,-13.23,87,20,8.68,few clouds,2021-01-17 23:58:48
156,El Dorado,US,38.7666,-120.5177,66.2,64.0,45,1,4.61,clear sky,2021-01-17 23:58:48
157,Varzea Grande,BR,-15.6467,-56.1325,77.0,77.0,83,40,8.05,scattered clouds,2021-01-17 23:58:48
158,Kawalu,ID,-7.3817,108.2082,75.09,75.09,82,99,1.95,overcast clouds,2021-01-17 23:58:48
159,Port Hardy,CA,50.6996,-127.4199,46.4,46.4,93,75,9.46,broken clouds,2021-01-17 23:58:49
160,Chicama,PE,-7.8447,-79.1469,73.02,73.02,72,29,7.67,scattered clouds,2021-01-17 23:58:49
161,Kalabo,ZM,-14.97,22.6814,70.05,70.05,72,100,4.03,overcast clouds,2021-01-17 23:58:49
162,Fairfield,US,41.2668,-73.3162,43.0,39.0,56,90,5.75,overcast clouds,2021-01-17 23:58:49
163,Ribeira Grande,PT,38.5167,-28.7,62.58,62.58,80,59,26.57,light rain,2021-01-17 23:58:49
164,Huarmey,PE,-10.0681,-78.1522,70.86,70.86,81,59,9.19,broken clouds,2021-01-17 23:58:49
165,Kibala,TD,9.1104,18.3463,73.4,73.4,40,0,5.68,clear sky,2021-01-17 23:58:49
166,Severo-Kurilsk,RU,50.6789,156.125,21.0,21.0,92,88,39.41,light snow,2021-01-17 23:58:49
167,Santiago,CL,-33.4569,-70.6483,84.2,82.4,20,0,8.05,clear sky,2021-01-17 23:58:49
168,Saint-Joseph,RE,-21.3667,55.6167,77.0,75.99,73,0,8.05,clear sky,2021-01-17 23:58:49
169,Weymouth,US,42.2209,-70.9398,42.01,37.99,56,90,13.8,overcast clouds,2021-01-17 23:58:50
170,Fayaoue,NC,-20.65,166.5333,82.87,82.87,75,100,5.97,overcast clouds,2021-01-17 23:58:50
171,Esperance,AU,-33.8667,121.9,64.4,64.4,68,0,11.5,clear sky,2021-01-17 23:58:50
172,Urucara,BR,-2.5364,-57.76,79.63,79.63,69,55,2.21,broken clouds,2021-01-17 23:58:50
173,Isilkul,RU,54.9109,71.2728,5.22,5.22,92,94,15.43,overcast clouds,2021-01-17 23:58:50
174,Klaksvik,FO,62.2266,-6.589,35.6,35.6,87,75,8.05,broken clouds,2021-01-17 23:58:50
175,Tsumeb,NA,-19.2333,17.7167,68.0,68.0,88,100,4.61,moderate rain,2021-01-17 23:58:50
176,Hamilton,US,39.1834,-84.5333,34.0,32.0,86,90,6.91,light snow,2021-01-17 23:55:17
177,Basco,PH,20.4487,121.9702,69.31,69.31,79,99,32.06,overcast clouds,2021-01-17 23:58:50
178,Mbanza-Ngungu,CD,-5.25,14.8667,66.52,66.52,100,100,3.33,moderate rain,2021-01-17 23:58:50
179,Sao Joao Da Barra,BR,-21.6403,-41.0511,76.19,76.19,85,9,14.63,clear sky,2021-01-17 23:58:51
180,Touros,BR,-5.1989,-35.4608,78.8,78.8,78,20,6.91,few clouds,2021-01-17 23:58:51
181,Lima,PE,-12.0432,-77.0282,73.4,71.01,68,0,18.41,clear sky,2021-01-17 23:55:09
182,Pozo Colorado,PY,-23.4923,-58.7972,68.58,68.58,81,100,6.44,overcast clouds,2021-01-17 23:58:51
183,Tautira,PF,-17.7333,-149.15,86.0,86.0,62,40,4.61,scattered clouds,2021-01-17 23:58:51
184,Aykhal,RU,66.0,111.5,-33.48,-33.48,80,90,1.36,overcast clouds,2021-01-17 23:58:51
185,Belaya Gora,RU,68.5333,146.4167,-37.66,-37.66,83,48,0.98,scattered clouds,2021-01-17 23:58:51
186,Benguela,AO,-12.5763,13.4055,74.48,74.48,75,90,6.26,overcast clouds,2021-01-17 23:58:51
187,Port Hedland,AU,-20.3167,118.5667,96.8,96.8,23,10,12.66,clear sky,2021-01-17 23:58:51
188,Kumta,IN,14.4167,74.4,76.28,76.28,55,0,7.34,clear sky,2021-01-17 23:58:51
189,Pangnirtung,CA,66.1451,-65.7125,-18.18,-18.18,79,50,2.28,scattered clouds,2021-01-17 23:58:51
190,Kjollefjord,NO,70.9457,27.3465,33.33,33.33,94,100,11.81,light snow,2021-01-17 23:58:52
191,Aguimes,ES,27.9054,-15.4461,60.8,57.99,72,20,9.22,few clouds,2021-01-17 23:58:52
192,Raton,US,36.9034,-104.4391,41.0,37.0,36,1,6.91,clear sky,2021-01-17 23:58:52
193,Labuan,MY,5.2767,115.2417,73.4,73.4,94,20,1.14,few clouds,2021-01-17 23:58:52
194,Cozumel,MX,20.5083,-86.9458,69.8,66.99,78,90,13.8,overcast clouds,2021-01-17 23:57:16
195,Sal Rei,CV,16.1833,-22.9167,69.8,69.8,73,0,14.97,haze,2021-01-17 23:58:52
196,Iqaluit,CA,63.7506,-68.5145,-11.2,-11.2,64,40,4.61,scattered clouds,2021-01-17 23:58:52
197,Kita,ML,13.0349,-9.4895,71.46,71.46,19,76,5.28,broken clouds,2021-01-17 23:58:52
198,Temple,US,31.0982,-97.3428,60.8,55.0,29,1,4.61,clear sky,2021-01-17 23:55:50
199,Kiunga,PG,-6.1219,141.2906,75.88,75.88,94,100,1.81,moderate rain,2021-01-17 23:58:52
200,Port Alberni,CA,49.2413,-124.8028,44.01,42.01,88,71,1.1,broken clouds,2021-01-17 23:58:53
201,Chumikan,RU,54.7183,135.315,-22.94,-22.94,75,97,10.94,overcast clouds,2021-01-17 23:58:53
202,Ushtobe,KZ,45.2514,77.9838,16.36,16.36,89,7,5.23,clear sky,2021-01-17 23:58:53
203,Porto Velho,BR,-8.7619,-63.9039,80.6,80.6,83,20,3.44,light rain,2021-01-17 23:54:04
204,Yar-Sale,RU,66.8333,70.8333,-12.95,-12.95,89,100,16.51,light snow,2021-01-17 23:58:53
205,Saint-Augustin,CA,51.226,-58.6502,36.64,36.64,93,100,26.4,moderate rain,2021-01-17 23:58:53
206,Tura,IN,25.5198,90.2201,58.21,58.21,69,0,2.64,clear sky,2021-01-17 23:58:53
207,Kalevala,RU,65.2,31.1667,11.98,11.98,96,67,6.46,broken clouds,2021-01-17 23:58:53
208,Barrow,US,71.2906,-156.7887,-2.2,-2.2,71,90,16.11,overcast clouds,2021-01-17 23:58:53
209,Port Macquarie,AU,-31.4333,152.9167,79.0,79.0,60,96,1.01,overcast clouds,2021-01-17 23:58:54
210,Ugoofaaru,MV,5.6667,73.0,81.36,81.36,78,29,12.88,light rain,2021-01-17 23:58:54
211,Tuatapere,NZ,-46.1333,167.6833,62.01,62.01,52,80,8.99,broken clouds,2021-01-17 23:58:54
212,Camocim,BR,-2.9022,-40.8411,79.77,79.77,81,100,11.27,light rain,2021-01-17 23:57:05
213,Taklisah,TN,36.7833,10.6333,55.4,53.6,62,40,12.66,scattered clouds,2021-01-17 23:58:54
214,San Luis,AR,-33.295,-66.3356,68.0,68.0,30,0,4.85,clear sky,2021-01-17 23:58:54
215,Japura,ID,-0.3167,102.35,72.41,72.41,97,100,1.25,overcast clouds,2021-01-17 23:58:54
216,Lazaro Cardenas,MX,17.9583,-102.2,79.36,79.36,72,46,5.55,scattered clouds,2021-01-17 23:58:54
217,Tutoia,BR,-2.7619,-42.2744,78.78,78.78,88,100,9.04,light rain,2021-01-17 23:58:54
218,Muroto,JP,33.2833,134.15,32.0,32.0,69,20,5.75,few clouds,2021-01-17 23:58:54
219,Skuodas,LT,56.2667,21.5333,12.2,6.8,85,90,3.44,overcast clouds,2021-01-17 23:58:55
220,Sampit,ID,-2.5333,112.95,74.98,74.98,94,100,1.72,overcast clouds,2021-01-17 23:58:55
221,San Isidro,PE,-12.1167,-77.05,73.4,71.01,68,0,18.41,clear sky,2021-01-17 23:58:55
222,Roma,US,43.2128,-75.4557,34.0,32.0,86,90,3.44,light snow,2021-01-17 23:55:47
223,Nemuro,JP,43.3236,145.575,15.8,15.8,92,40,2.3,scattered clouds,2021-01-17 23:58:55
224,Ciudad Bolivar,VE,8.1222,-63.5497,82.02,82.02,62,95,12.19,overcast clouds,2021-01-17 23:58:55
225,Altay,CN,47.8667,88.1167,11.84,11.84,62,53,1.7,broken clouds,2021-01-17 23:58:55
226,Zhangye,CN,38.9342,100.4517,18.97,18.97,70,0,2.57,clear sky,2021-01-17 23:58:55
227,Alhama De Murcia,ES,37.851,-1.4251,51.01,48.99,36,25,6.87,scattered clouds,2021-01-17 23:58:56
228,Chuy,UY,-33.6971,-53.4616,65.84,65.84,70,57,8.93,broken clouds,2021-01-17 23:58:56
229,Dire,ML,12.2833,-10.9667,68.88,68.88,21,54,1.23,broken clouds,2021-01-17 23:58:56
230,Norman Wells,CA,65.282,-126.8329,-9.4,-9.4,77,90,0.36,overcast clouds,2021-01-17 23:58:56
231,Chapais,CA,49.7834,-74.8492,14.0,14.0,85,90,13.8,light snow,2021-01-17 23:58:56
232,Tiksi,RU,71.6872,128.8694,-20.25,-20.25,88,100,8.34,overcast clouds,2021-01-17 23:58:56
233,San Patricio,US,28.017,-97.5169,66.2,62.01,52,20,11.5,few clouds,2021-01-17 23:58:56
234,Warmbad,NA,-28.45,18.7333,75.85,75.85,31,0,8.86,clear sky,2021-01-17 23:58:56
235,Sohag,EG,26.557,31.6948,53.6,53.6,40,0,6.91,clear sky,2021-01-17 23:58:56
236,Novomikhaylovskiy,RU,44.2581,38.8578,23.0,23.0,82,100,8.14,overcast clouds,2021-01-17 23:58:57
237,Kloulklubed,PW,7.0419,134.2556,75.2,75.2,88,90,6.91,moderate rain,2021-01-17 23:58:57
238,Krasnoselkup,RU,65.7,82.4667,-3.01,-3.01,92,100,10.4,overcast clouds,2021-01-17 23:58:57
239,Talaya,RU,61.3833,152.75,-31.63,-31.63,80,100,8.59,light snow,2021-01-17 23:58:57
240,Tual,ID,-5.6667,132.75,82.81,82.81,80,81,19.55,light rain,2021-01-17 23:58:57
241,Quelimane,MZ,-17.8786,36.8883,77.0,77.0,88,75,33.38,light rain,2021-01-17 23:58:57
242,Necochea,AR,-38.5473,-58.7368,60.01,60.01,78,68,13.06,broken clouds,2021-01-17 23:58:57
243,Auki,SB,-8.7676,160.7034,86.07,86.07,67,36,4.45,scattered clouds,2021-01-17 23:58:57
244,Nelson Bay,AU,-32.7167,152.15,73.99,71.6,73,75,6.91,broken clouds,2021-01-17 23:58:58
245,Mahon,ES,39.8885,4.2658,48.2,48.2,71,20,19.57,few clouds,2021-01-17 23:58:58
246,Thompson,CA,55.7435,-97.8558,-9.4,-9.4,77,75,4.61,broken clouds,2021-01-17 23:58:23
247,Dunedin,NZ,-45.8742,170.5036,63.0,61.0,62,81,3.0,broken clouds,2021-01-17 23:58:58
248,Atikokan,CA,48.7555,-91.6216,18.07,18.07,97,99,3.29,overcast clouds,2021-01-17 23:58:58
249,Conchagua,SV,13.3078,-87.8647,91.4,86.0,58,20,5.75,few clouds,2021-01-17 23:58:58
250,Harrison,US,30.4091,-89.0436,55.4,50.0,44,1,4.61,clear sky,2021-01-17 23:58:58
251,Barra Patuca,HN,15.8,-84.2833,76.98,76.98,82,100,7.7,overcast clouds,2021-01-17 23:58:58
252,Tairua,NZ,-37.0167,175.85,73.99,73.99,51,18,17.0,few clouds,2021-01-17 23:58:58
253,Marinette,US,45.1,-87.6307,30.2,30.2,69,90,4.61,overcast clouds,2021-01-17 23:55:40
254,Dores Do Indaia,BR,-19.4633,-45.6017,69.04,69.04,92,100,3.47,light rain,2021-01-17 23:58:59
255,Naron,ES,43.5167,-8.1528,54.0,51.8,100,75,1.14,light intensity drizzle,2021-01-17 23:58:59
256,Minot,US,48.2325,-101.2963,28.4,25.0,69,1,4.61,clear sky,2021-01-17 23:58:59
257,Beloha,MG,-25.1667,45.05,76.08,76.08,88,85,3.83,overcast clouds,2021-01-17 23:58:59
258,Qingyuan,CN,23.7,113.0333,46.4,46.4,49,0,6.71,clear sky,2021-01-17 23:58:59
259,Gazojak,TM,41.1875,61.4036,41.22,41.22,65,100,7.25,overcast clouds,2021-01-17 23:58:59
260,Moerai,PF,-22.4333,-151.3333,81.18,81.18,69,23,7.58,few clouds,2021-01-17 23:58:59
261,Lake City,US,30.1897,-82.6393,50.0,48.2,57,1,10.36,clear sky,2021-01-17 23:58:59
262,Pangody,RU,65.85,74.4859,-13.81,-13.81,89,100,12.91,overcast clouds,2021-01-17 23:58:59
263,San Quintin,MX,30.4833,-115.95,70.92,70.92,33,0,6.02,clear sky,2021-01-17 23:58:39
264,Ambilobe,MG,-13.2,49.05,74.64,74.64,92,69,0.63,broken clouds,2021-01-17 23:59:00
265,Ngama,TD,11.7833,17.1667,69.87,69.87,20,66,10.27,broken clouds,2021-01-17 23:55:21
266,Waingapu,ID,-9.6567,120.2641,80.51,80.51,75,100,2.77,overcast clouds,2021-01-17 23:59:00
267,Livingstone,ZM,-17.8419,25.8543,69.53,69.53,94,100,3.53,overcast clouds,2021-01-17 23:59:00
268,Meulaboh,ID,4.1363,96.1285,75.99,75.99,84,98,4.14,overcast clouds,2021-01-17 23:59:00
269,Burnie,AU,-41.0667,145.9167,60.21,60.21,66,79,15.68,broken clouds,2021-01-17 23:59:00
270,Sobolevo,RU,54.4299,31.8996,-8.23,-8.23,91,73,4.9,broken clouds,2021-01-17 23:59:00
271,Marzuq,YE,14.4,46.4667,57.96,57.96,51,53,1.74,broken clouds,2021-01-17 23:59:00
272,Hasaki,JP,35.7333,140.8333,37.4,36.0,75,75,10.36,broken clouds,2021-01-17 23:59:01
273,Manoel Urbano,BR,-8.8389,-69.2597,76.84,76.84,90,19,2.42,few clouds,2021-01-17 23:59:01
274,Sioux Lookout,CA,50.1001,-91.917,15.8,15.8,86,90,2.3,light snow,2021-01-17 23:59:01
275,Praia Da Vitoria,PT,38.7333,-27.0667,61.0,60.8,94,75,25.84,light rain,2021-01-17 23:59:01
276,Evensk,RU,61.95,159.2333,-0.49,-0.49,79,97,21.25,overcast clouds,2021-01-17 23:59:01
277,Deputatskiy,RU,69.3,139.9,-35.75,-35.75,85,97,1.16,overcast clouds,2021-01-17 23:59:01
278,Ifanadiana,MG,-21.3,47.6333,71.98,71.98,93,71,1.3,broken clouds,2021-01-17 23:59:01
279,Kruisfontein,ZA,-34.0033,24.7314,68.0,68.0,77,67,1.99,broken clouds,2021-01-17 23:59:02
280,Jining,CN,35.405,116.5814,32.0,32.0,1,0,3.38,clear sky,2021-01-17 23:59:02
281,Alibag,IN,18.6411,72.8792,75.2,75.2,69,20,5.75,haze,2021-01-17 23:59:02
282,Santa Cruz,BO,-17.8,-63.1667,69.8,69.8,83,90,17.27,overcast clouds,2021-01-17 23:57:21
283,San Diego,US,32.7153,-117.1573,80.6,69.01,13,1,5.75,clear sky,2021-01-17 23:54:31
284,Olafsvik,IS,64.8945,-23.7142,36.21,36.21,93,99,4.03,overcast clouds,2021-01-17 23:59:02
285,Porbandar,IN,21.6422,69.6093,63.41,63.41,59,0,6.8,clear sky,2021-01-17 23:56:16
286,Yulara,AU,-25.2406,130.9889,77.0,77.0,19,0,16.11,clear sky,2021-01-17 23:59:03
287,Cabrobo,BR,-8.5142,-39.31,81.27,81.27,49,100,16.69,overcast clouds,2021-01-17 23:59:03
288,Gamboula,CF,4.1178,15.1393,68.58,68.58,60,47,2.21,scattered clouds,2021-01-17 23:59:03
289,Rundu,NA,-17.9333,19.7667,67.24,67.24,91,100,2.86,overcast clouds,2021-01-17 23:59:03
290,Nara,JP,34.6851,135.8049,37.99,33.01,64,20,5.75,few clouds,2021-01-17 23:59:03
291,Paamiut,GL,61.994,-49.6678,27.3,27.3,92,100,8.77,overcast clouds,2021-01-17 23:59:03
292,Madimba,TZ,-10.4,40.3333,78.87,78.87,87,66,9.53,broken clouds,2021-01-17 23:59:03
293,Kargasok,RU,59.0556,80.8572,12.81,12.81,95,100,11.52,overcast clouds,2021-01-17 23:59:03
294,Tigil,RU,57.8,158.6667,21.51,21.51,92,100,18.57,overcast clouds,2021-01-17 23:59:04
295,Inhambane,MZ,-23.865,35.3833,78.21,78.21,87,100,3.58,moderate rain,2021-01-17 23:59:04
296,Selikhino,RU,50.3672,137.4996,-8.5,-8.5,89,100,1.63,overcast clouds,2021-01-17 23:59:04
297,Lorengau,PG,-2.0226,147.2712,85.5,85.5,71,85,16.42,overcast clouds,2021-01-17 23:59:04
298,Svetlaya,RU,46.5389,138.3297,4.14,4.14,79,63,6.35,broken clouds,2021-01-17 23:59:04
299,Gao,ML,16.6362,1.637,68.25,68.25,22,72,13.56,broken clouds,2021-01-17 23:59:04
300,Awbari,LY,26.5921,12.7805,41.58,41.58,66,0,3.83,clear sky,2021-01-17 23:59:04
301,Parabel,RU,58.6978,81.4825,13.51,13.51,96,100,11.97,overcast clouds,2021-01-17 23:59:04
302,Lagoa,PT,39.05,-27.9833,62.08,62.08,83,50,20.6,scattered clouds,2021-01-17 23:59:05
303,Kashi,CN,39.4547,75.9797,17.6,17.6,79,48,4.47,scattered clouds,2021-01-17 23:59:05
304,Muncar,ID,-8.4333,114.3333,78.28,78.28,81,100,1.88,overcast clouds,2021-01-17 23:59:05
305,Portland,US,45.5234,-122.6762,52.0,46.99,76,75,1.25,broken clouds,2021-01-17 23:56:44
306,Manzanillo,CU,20.3433,-77.1167,75.07,75.07,78,100,5.41,overcast clouds,2021-01-17 23:59:05
307,Coquimbo,CL,-29.9533,-71.3436,62.6,62.6,77,20,12.66,few clouds,2021-01-17 23:59:05
308,Bahar,IR,34.9072,48.4414,34.23,34.23,88,38,10.33,scattered clouds,2021-01-17 23:59:05
309,Vardo,NO,70.3705,31.1107,33.8,33.8,86,20,25.32,light snow,2021-01-17 23:59:05
310,Ilulissat,GL,69.2167,-51.1,21.2,21.2,79,75,13.8,broken clouds,2021-01-17 23:59:05
311,Izumo,JP,35.3667,132.7667,32.0,32.0,100,75,10.36,light snow,2021-01-17 23:54:12
312,Goksun,TR,38.021,36.4973,44.6,44.6,81,75,4.61,broken clouds,2021-01-17 23:59:06
313,Sao Filipe,CV,14.8961,-24.4956,72.43,72.43,73,0,6.58,clear sky,2021-01-17 23:59:06
314,Miraflores,MX,19.2167,-98.8083,59.0,53.6,71,75,11.5,broken clouds,2021-01-17 23:59:06
315,Port Hawkesbury,CA,45.6169,-61.3485,39.0,37.4,75,75,14.97,broken clouds,2021-01-17 23:59:06
316,Bonnyville,CA,54.2668,-110.735,32.0,24.8,93,90,2.3,light snow,2021-01-17 23:59:06
317,Rodopolis,GR,41.2578,22.9983,28.99,26.01,78,2,1.99,clear sky,2021-01-17 23:59:06
318,Jalu,LY,29.0331,21.5482,48.85,48.85,83,0,7.74,clear sky,2021-01-17 23:59:06
319,Ponta Do Sol,PT,32.6667,-17.1,55.99,46.99,59,66,1.99,broken clouds,2021-01-17 23:59:06
320,Souillac,MU,-20.5167,57.5167,78.8,78.8,83,40,11.5,scattered clouds,2021-01-17 23:59:07
321,Severodvinsk,RU,64.5635,39.8302,8.6,8.6,85,90,6.71,overcast clouds,2021-01-17 23:59:07
322,Kisangani,CD,0.5167,25.2,71.15,71.15,88,71,1.5,broken clouds,2021-01-17 23:59:07
323,Batemans Bay,AU,-35.7167,150.1833,73.0,72.0,68,0,1.99,clear sky,2021-01-17 23:59:07
324,Leningradskiy,RU,69.3833,178.4167,-26.09,-26.09,83,34,6.2,scattered clouds,2021-01-17 23:59:07
325,Nurobod,UZ,40.9056,69.8023,39.2,39.2,65,0,4.61,clear sky,2021-01-17 23:59:07
326,Altamira,BR,-3.2033,-52.2064,74.14,74.14,95,77,2.57,broken clouds,2021-01-17 23:59:07
327,Hambantota,LK,6.1241,81.1185,75.65,75.65,83,96,12.08,overcast clouds,2021-01-17 23:59:08
328,Paso De Carrasco,UY,-34.8603,-56.0522,69.01,66.99,68,75,16.11,broken clouds,2021-01-17 23:59:08
329,Halifax,CA,44.6453,-63.5724,39.2,37.0,81,97,29.93,overcast clouds,2021-01-17 23:56:37
330,Penzance,GB,50.1186,-5.5371,43.0,42.01,87,75,3.44,broken clouds,2021-01-17 23:57:21
331,Clyde River,CA,70.4692,-68.5914,6.8,6.8,92,90,26.46,snow,2021-01-17 23:59:08
332,Torbay,CA,47.6666,-52.7314,37.99,35.01,100,90,20.71,mist,2021-01-17 23:59:08
333,Goderich,CA,43.7501,-81.7165,33.8,33.8,80,100,4.61,overcast clouds,2021-01-17 23:59:08
334,Saint Anthony,US,45.0205,-93.218,21.99,19.0,86,90,3.44,overcast clouds,2021-01-17 23:59:08
335,San Carlos,VE,9.6612,-68.5827,76.41,76.41,64,51,4.79,broken clouds,2021-01-17 23:59:08
336,Katsuura,JP,35.1333,140.3,43.0,36.0,63,96,3.0,overcast clouds,2021-01-17 23:59:08
337,Abadan,IR,30.3392,48.3043,53.6,53.6,100,78,4.61,mist,2021-01-17 23:59:09
338,Nhulunbuy,AU,-12.2333,136.7667,82.4,82.4,89,75,6.91,light rain,2021-01-17 23:59:09
339,Cam Ranh,VN,11.9214,109.1591,73.4,73.4,64,40,25.32,scattered clouds,2021-01-17 23:59:09
340,Cayenne,GF,4.9333,-52.3333,80.6,80.6,83,40,8.05,scattered clouds,2021-01-17 23:55:07
341,Vao,NC,-22.6667,167.4833,77.88,77.88,80,68,13.06,broken clouds,2021-01-17 23:59:09
342,Narsaq,GL,60.9167,-46.05,21.2,21.2,68,75,7.38,broken clouds,2021-01-17 23:59:09
343,Mehamn,NO,71.0357,27.8492,33.37,33.37,94,100,12.53,light snow,2021-01-17 23:59:09
344,Airai,TL,-8.9266,125.4092,67.66,67.66,90,100,0.67,overcast clouds,2021-01-17 23:59:09
345,Codrington,AU,-38.2667,141.9667,59.9,59.9,74,99,14.83,overcast clouds,2021-01-17 23:59:10
346,Baculin,PH,7.4525,126.5842,76.8,76.8,84,100,9.19,overcast clouds,2021-01-17 23:59:10
347,Itarema,BR,-2.9248,-39.9167,80.15,80.15,77,93,12.75,overcast clouds,2021-01-17 23:59:10
348,Monduli,TZ,-3.3,36.45,64.4,64.4,82,20,4.79,few clouds,2021-01-17 23:59:10
349,La Ronge,CA,55.1001,-105.2842,3.2,3.2,85,100,5.75,light snow,2021-01-17 23:59:10
350,Saldanha,ZA,-33.0117,17.9442,66.2,66.2,72,0,5.75,clear sky,2021-01-17 23:59:10
351,Raymondville,US,26.4815,-97.7831,69.8,68.0,60,1,10.36,clear sky,2021-01-17 23:59:11
352,Buala,SB,-8.145,159.5921,84.04,84.04,75,53,9.75,light rain,2021-01-17 23:59:11
353,Mogadishu,SO,2.0371,45.3438,75.85,75.85,84,94,20.2,overcast clouds,2021-01-17 23:59:11
354,Arraial Do Cabo,BR,-22.9661,-42.0278,76.15,76.15,83,23,27.47,few clouds,2021-01-17 23:59:11
355,Ipixuna,BR,-1.7625,-48.8043,77.0,77.0,83,40,5.75,scattered clouds,2021-01-17 23:59:11
356,Mahenge,TZ,-8.6833,36.7167,65.32,65.32,100,72,2.42,broken clouds,2021-01-17 23:59:11
357,Asau,RO,46.4333,26.4,23.0,23.0,93,75,8.05,snow,2021-01-17 23:59:11
358,Kandrian,PG,-6.2167,149.55,86.74,86.74,64,40,4.23,scattered clouds,2021-01-17 23:59:12
359,Hervey Bay,AU,-25.2986,152.8535,82.99,80.6,74,90,3.44,overcast clouds,2021-01-17 23:59:12
360,Herzogenburg,AT,48.2905,15.7314,26.01,12.99,90,14,1.01,few clouds,2021-01-17 23:59:12
361,Laguna,US,38.421,-121.4238,70.0,68.0,43,1,1.5,clear sky,2021-01-17 23:59:12
362,Ouegoa,NC,-20.35,164.4333,85.84,85.84,70,85,8.08,light rain,2021-01-17 23:59:12
363,Fort Nelson,CA,58.8053,-122.7002,24.8,24.8,80,40,4.61,scattered clouds,2021-01-17 23:59:12
364,Shirokiy,RU,49.758,129.523,-20.61,-20.61,87,99,6.58,light snow,2021-01-17 23:59:12
365,Puerto Varas,CL,-41.3195,-72.9854,64.4,64.4,68,75,9.22,broken clouds,2021-01-17 23:59:12
366,Kharp,RU,66.8014,65.8081,-19.39,-19.39,82,100,8.05,overcast clouds,2021-01-17 23:59:13
367,Taoudenni,ML,22.6783,-3.9836,57.61,57.61,34,62,17.78,broken clouds,2021-01-17 23:59:13
368,Levelland,US,33.5873,-102.378,48.2,46.99,40,75,5.75,broken clouds,2021-01-17 23:59:13
369,Muriae,BR,-21.1306,-42.3664,70.88,70.88,83,38,2.46,scattered clouds,2021-01-17 23:59:13
370,Marrakesh,MA,31.6315,-8.0083,44.6,44.6,70,0,3.44,clear sky,2021-01-17 23:55:19
371,Scotts Valley,US,37.0511,-122.0147,72.0,66.0,45,0,3.83,clear sky,2021-01-17 23:57:56
372,Tolentino,IT,43.2126,13.2901,37.0,33.01,94,100,1.01,overcast clouds,2021-01-17 23:59:13
373,Castle Rock,US,39.3722,-104.8561,46.4,39.99,25,75,4.61,broken clouds,2021-01-17 23:59:13
374,Verkh-Usugli,RU,52.7,115.1667,-24.61,-24.61,80,0,1.7,clear sky,2021-01-17 23:59:14
375,Mitsamiouli,KM,-11.3847,43.2844,81.3,81.3,76,18,7.76,few clouds,2021-01-17 23:59:14
376,Cairns,AU,-16.9167,145.7667,78.8,78.01,89,90,3.44,heavy intensity rain,2021-01-17 23:59:14
377,Fauske,NO,67.2588,15.3918,21.0,18.0,82,69,4.74,broken clouds,2021-01-17 23:59:14
378,Arrifes,PT,37.7667,-25.7,61.0,60.8,88,40,20.71,scattered clouds,2021-01-17 23:59:14
379,Gerash,IR,27.6652,54.1371,50.77,50.77,52,0,3.47,clear sky,2021-01-17 23:59:14
380,Kizhinga,RU,51.8462,109.9097,-18.24,-18.24,84,97,2.26,overcast clouds,2021-01-17 23:59:14
381,Ures,MX,29.4333,-110.4,84.99,82.99,13,0,3.0,clear sky,2021-01-17 23:59:14
382,Elko,US,41.0002,-115.5012,51.8,51.8,37,1,11.5,clear sky,2021-01-17 23:59:15
383,Anito,PH,12.4497,125.2886,77.76,77.76,90,100,13.67,heavy intensity rain,2021-01-17 23:59:15
384,Zarubino,RU,42.63,131.0922,15.51,15.51,82,100,16.6,light snow,2021-01-17 23:59:15
385,Kushiro,JP,42.975,144.3747,12.2,12.2,92,20,6.91,few clouds,2021-01-17 23:59:15
386,Shache,CN,38.4167,77.2406,16.09,16.09,84,12,0.78,few clouds,2021-01-17 23:59:15
387,Veinticinco De Mayo,AR,-35.4323,-60.1727,69.01,69.01,64,0,7.83,clear sky,2021-01-17 23:59:15
388,Santa Lucia,ES,27.9117,-15.5407,60.8,57.99,72,20,9.22,few clouds,2021-01-17 23:59:15
389,Serebryansk,KZ,49.6925,83.2892,-9.4,-9.4,77,40,2.24,scattered clouds,2021-01-17 23:59:15
390,Manaus,BR,-3.1019,-60.025,84.2,82.4,79,20,2.3,few clouds,2021-01-17 23:59:16
391,Isla Vista,US,34.4133,-119.861,82.4,82.4,17,1,4.61,clear sky,2021-01-17 23:58:33
392,Batsfjord,NO,70.6345,29.7185,33.8,33.8,86,20,25.32,light snow,2021-01-17 23:59:16
393,Tikrit,IQ,34.6071,43.6782,54.57,54.57,57,55,10.11,broken clouds,2021-01-17 23:59:16
394,Guerrero Negro,MX,27.9769,-114.0611,73.44,73.44,27,0,9.28,clear sky,2021-01-17 23:59:16
395,Vestmannaeyjar,IS,63.4427,-20.2734,36.41,36.41,82,100,26.96,overcast clouds,2021-01-17 23:59:16
396,Bulgan,MN,48.8125,103.5347,6.6,6.6,83,97,0.89,overcast clouds,2021-01-17 23:54:30
397,Alappuzha,IN,9.49,76.3264,74.66,74.66,84,41,7.7,scattered clouds,2021-01-17 23:59:16
398,Komsomolskiy,UZ,40.4272,71.7189,35.6,35.6,55,90,6.91,overcast clouds,2021-01-17 23:59:17
399,Daura,NG,11.5538,11.4085,68.92,68.92,23,0,9.35,clear sky,2021-01-17 23:59:17
400,Partapur,IN,23.6,74.1667,68.2,68.2,54,0,1.28,clear sky,2021-01-17 23:59:17
401,Sabzevar,IR,36.2126,57.6819,43.48,43.48,57,33,6.4,scattered clouds,2021-01-17 23:59:17
402,Cartagena Del Chaira,CO,1.3349,-74.8429,78.15,78.15,66,44,3.69,scattered clouds,2021-01-17 23:55:21
403,Tshikapa,CD,-6.4167,20.8,71.24,71.24,91,100,2.95,light rain,2021-01-17 23:59:17
404,Taujica,HN,15.7,-85.9167,75.2,75.2,94,75,5.75,broken clouds,2021-01-17 23:59:17
405,Impfondo,CG,1.6381,18.0667,72.36,72.36,85,70,2.75,broken clouds,2021-01-17 23:59:17
406,Cabo San Lucas,MX,22.8909,-109.9124,78.8,72.0,31,1,8.05,clear sky,2021-01-17 23:56:22
407,Sembabule,UG,-0.0772,31.4567,63.12,63.12,77,84,1.39,broken clouds,2021-01-17 23:59:18
408,Taksimo,RU,56.3444,114.8794,-39.42,-39.42,66,3,0.65,clear sky,2021-01-17 23:59:18
409,La Peca,PE,-5.6111,-78.435,73.29,73.29,72,100,2.64,light rain,2021-01-17 23:59:18
410,Ginir,ET,7.1333,40.7,56.59,56.59,42,71,3.22,broken clouds,2021-01-17 23:59:18
411,Simoes,BR,-7.5989,-40.8178,77.34,77.34,48,70,5.48,broken clouds,2021-01-17 23:59:18
412,Koygorodok,RU,60.445,50.9968,-11.0,-11.0,89,54,4.32,broken clouds,2021-01-17 23:59:18
413,Junin,AR,-34.5838,-60.9433,64.99,64.99,23,0,7.27,clear sky,2021-01-17 23:57:16
414,Balkhash,KZ,46.844,74.9804,13.5,13.5,94,71,8.03,broken clouds,2021-01-17 23:59:18
415,Snyder,US,32.7179,-100.9176,51.8,51.8,35,1,5.75,clear sky,2021-01-17 23:59:19
416,Abong Mbang,CM,3.9833,13.1833,67.53,67.53,74,53,3.65,broken clouds,2021-01-17 23:59:19
417,Constantine,DZ,36.365,6.6147,42.8,42.8,56,0,1.14,clear sky,2021-01-17 23:59:19
418,Dukhovshchina,RU,55.1919,32.4111,-7.31,-7.31,91,4,2.35,clear sky,2021-01-17 23:59:19
419,Kholodnyy,RU,62.7167,147.95,-26.99,-26.99,80,100,5.66,overcast clouds,2021-01-17 23:59:19
420,Bestobe,KZ,52.4994,73.0975,10.44,10.44,93,28,11.68,scattered clouds,2021-01-17 23:59:19
421,Nalut,LY,30.3333,10.85,41.32,41.32,65,0,5.39,clear sky,2021-01-17 23:59:19
422,Mount Isa,AU,-20.7333,139.5,86.0,86.0,19,28,16.11,scattered clouds,2021-01-17 23:59:19
423,Pechenga,RU,69.5259,31.1703,30.2,30.2,86,0,19.57,light snow,2021-01-17 23:59:20
424,Padang,ID,-0.9492,100.3543,73.4,73.4,100,40,2.3,scattered clouds,2021-01-17 23:59:20
425,Bukachacha,RU,52.9833,116.9167,-25.42,-25.42,79,0,1.86,clear sky,2021-01-17 23:59:20
426,Shingu,JP,33.7333,135.9833,37.4,37.4,60,40,11.5,scattered clouds,2021-01-17 23:59:20
427,Plettenberg Bay,ZA,-34.0527,23.3716,64.65,64.65,88,19,7.0,few clouds,2021-01-17 23:59:20
428,Davila,PH,18.4726,120.5763,73.4,73.4,73,20,17.27,few clouds,2021-01-17 23:59:20
429,Harper,LR,4.375,-7.7169,78.67,78.67,82,0,7.61,clear sky,2021-01-17 23:59:20
430,Bonavista,CA,48.6499,-53.1147,37.0,35.6,100,100,8.05,moderate rain,2021-01-17 23:59:20
431,Matagami,CA,49.7502,-77.6328,10.4,10.4,85,90,18.41,light snow,2021-01-17 23:59:21
432,Shenzhen,CN,22.5455,114.0683,54.0,46.0,57,75,9.08,broken clouds,2021-01-17 23:59:21
433,Vostok,RU,46.4856,135.8833,-8.5,-8.5,86,42,2.89,scattered clouds,2021-01-17 23:59:21
434,Bilma,NE,18.6853,12.9164,61.25,61.25,28,99,16.24,overcast clouds,2021-01-17 23:59:21
435,Rawson,AR,-43.3002,-65.1023,69.93,69.93,48,1,11.83,clear sky,2021-01-17 23:59:21
436,Inuvik,CA,68.3499,-133.7218,-5.8,-7.6,84,81,1.14,broken clouds,2021-01-17 23:59:21
437,Guangyuan,CN,32.442,105.823,24.01,19.0,85,0,1.14,clear sky,2021-01-17 23:58:09
438,Pisco,PE,-13.7,-76.2167,71.6,66.99,78,0,23.02,clear sky,2021-01-17 23:59:21
439,Wawa,NG,9.9022,4.4192,75.42,75.42,19,17,6.71,few clouds,2021-01-17 23:59:21
440,Dickinson,US,29.4608,-95.0513,64.4,57.0,22,1,6.91,clear sky,2021-01-17 23:59:22
441,Ostrovnoy,RU,68.0531,39.5131,16.74,16.74,95,99,17.34,light snow,2021-01-17 23:59:22
442,Rio Gallegos,AR,-51.6226,-69.2181,68.0,68.0,49,20,31.07,few clouds,2021-01-17 23:59:22
443,Storforshei,NO,66.4043,14.5233,10.99,10.99,82,4,3.0,clear sky,2021-01-17 23:59:22
444,Ippy,CF,6.2679,21.2247,71.8,71.8,26,40,4.45,scattered clouds,2021-01-17 23:59:22
445,Kabo,CF,7.6994,18.629,73.65,73.65,21,16,4.92,few clouds,2021-01-17 23:59:22
446,Koungou,YT,-12.7336,45.2042,78.8,78.8,89,0,6.91,clear sky,2021-01-17 23:59:22
447,Chokurdakh,RU,70.6333,147.9167,-27.0,-27.0,85,100,6.93,overcast clouds,2021-01-17 23:59:23
448,Boddam,GB,57.4667,-1.7833,41.0,41.0,87,40,12.66,light rain,2021-01-17 23:59:23
449,Kyra,RU,49.5776,111.9753,-17.09,-17.09,83,47,0.72,scattered clouds,2021-01-17 23:59:23
450,Dafeng,CN,23.4517,108.5881,43.7,43.7,62,90,3.89,overcast clouds,2021-01-17 23:59:23
451,Valdivia,CL,-39.8142,-73.2459,75.2,75.2,50,0,8.05,clear sky,2021-01-17 23:59:23
452,Saint-Pierre,RE,-21.3393,55.4781,77.0,66.0,73,0,8.05,clear sky,2021-01-17 23:59:23
453,Katherine,AU,-14.4667,132.2667,84.2,84.2,61,75,14.97,broken clouds,2021-01-17 23:59:24
454,Karpogory,RU,64.0019,44.4451,1.13,1.13,94,100,3.2,overcast clouds,2021-01-17 23:59:24
455,Tyrma,RU,50.0833,132.1667,-10.73,-10.73,88,99,1.19,overcast clouds,2021-01-17 23:59:24
456,Urgut,UZ,39.4022,67.2431,48.2,48.2,31,100,6.91,overcast clouds,2021-01-17 23:59:24
457,Richards Bay,ZA,-28.783,32.0377,70.7,70.7,89,62,6.76,broken clouds,2021-01-17 23:58:16
458,Saint-Paul,RE,-21.0096,55.2707,78.8,66.0,69,0,13.8,clear sky,2021-01-17 23:58:06
459,Santa Vitoria Do Palmar,BR,-33.5189,-53.3681,66.81,66.81,67,70,9.51,broken clouds,2021-01-17 23:59:24
460,Kerchevskiy,RU,59.946,56.2884,-17.99,-17.99,88,14,3.0,few clouds,2021-01-17 23:59:24
461,Terrace,CA,54.5163,-128.6035,41.0,41.0,93,75,16.11,light rain,2021-01-17 23:59:25
462,Gorontalo,ID,0.5412,123.0595,77.05,77.05,81,100,1.88,overcast clouds,2021-01-17 23:59:25
463,Kysyl-Syr,RU,63.8986,122.7617,-39.59,-39.59,80,100,3.04,overcast clouds,2021-01-17 23:59:25
464,Aswan,EG,24.0934,32.907,54.97,54.97,43,0,6.33,clear sky,2021-01-17 23:59:25
465,North Bend,US,43.4065,-124.2243,55.0,51.8,87,1,14.97,clear sky,2021-01-17 23:54:50
466,Maniitsoq,GL,65.4167,-52.9,18.81,18.81,94,100,7.0,overcast clouds,2021-01-17 23:59:25
467,Chernyshevskiy,RU,63.0128,112.4714,-40.22,-40.22,82,100,3.42,overcast clouds,2021-01-17 23:59:25
468,Grindavik,IS,63.8424,-22.4338,32.0,32.0,100,90,18.41,light snow,2021-01-17 23:59:25
469,Itainopolis,BR,-7.4469,-41.4783,80.62,80.62,48,66,3.8,broken clouds,2021-01-17 23:59:26
470,Nagato,JP,34.3833,131.2,37.4,32.0,86,75,2.3,light snow,2021-01-17 23:59:26
471,Kushmurun,KZ,52.4503,64.6311,-3.24,-3.24,90,0,6.82,clear sky,2021-01-17 23:59:26
472,Abatskoye,RU,56.2875,70.4555,4.91,4.91,93,100,14.97,overcast clouds,2021-01-17 23:59:26
473,Pascagoula,US,30.3658,-88.5561,53.6,46.99,54,1,3.44,clear sky,2021-01-17 23:58:47
474,Yichang,CN,30.7144,111.2847,38.39,38.39,74,0,4.56,clear sky,2021-01-17 23:59:26
475,Hofn,IS,64.2539,-15.2082,39.15,39.15,71,100,11.27,overcast clouds,2021-01-17 23:59:26
476,Havelock,US,34.8791,-76.9013,48.0,39.99,70,1,5.75,clear sky,2021-01-17 23:59:27
477,Khasan,RU,42.4308,130.6434,14.92,14.92,83,100,12.44,overcast clouds,2021-01-17 23:59:27
478,Fenyi,CN,27.8112,114.6681,37.6,37.6,73,0,1.66,clear sky,2021-01-17 23:59:27
479,Watsa,CD,3.0372,29.5355,64.33,64.33,39,74,2.26,broken clouds,2021-01-17 23:56:27
480,Mende,FR,44.6667,3.5,23.52,23.52,99,67,7.87,broken clouds,2021-01-17 23:59:27
481,Nikolayevskaya,RU,47.6139,41.5023,18.52,18.52,97,100,15.23,snow,2021-01-17 23:59:27
482,Colac,AU,-38.3333,143.5833,61.0,53.01,95,78,10.8,broken clouds,2021-01-17 23:59:27
483,Namatanai,PG,-3.6667,152.4333,85.17,85.17,68,65,12.71,broken clouds,2021-01-17 23:59:28
484,Ixtapa,MX,20.7,-105.2,72.0,71.6,78,1,4.61,clear sky,2021-01-17 23:59:28
485,Asyut,EG,27.181,31.1837,51.8,51.8,54,0,11.5,clear sky,2021-01-17 23:59:28
486,Esfarayen,IR,37.0765,57.5101,35.6,35.6,55,0,2.26,clear sky,2021-01-17 23:59:28
487,Ampanihy,MG,-24.7,44.75,74.71,74.71,84,98,4.03,overcast clouds,2021-01-17 23:59:28
488,Thinadhoo,MV,0.5333,72.9333,81.34,81.34,70,31,6.76,scattered clouds,2021-01-17 23:59:28
489,Najran,SA,17.4924,44.1277,57.2,57.2,35,0,1.01,clear sky,2021-01-17 23:59:28
490,Sokna,NO,60.24,9.9235,19.0,12.99,82,84,1.43,broken clouds,2021-01-17 23:59:28
491,Slave Lake,CA,55.2834,-114.769,33.8,33.8,93,90,16.11,overcast clouds,2021-01-17 23:54:44
492,Dingle,PH,10.9995,122.6711,75.38,75.38,92,100,9.66,moderate rain,2021-01-17 23:59:29
493,Pokhara,NP,28.2333,83.9833,53.22,53.22,51,0,4.45,clear sky,2021-01-17 23:55:05
494,Andenes,NO,69.3143,16.1194,30.2,30.2,93,90,5.75,overcast clouds,2021-01-17 23:59:29
495,Pemba,MZ,-12.974,40.5178,80.6,80.6,89,20,10.36,few clouds,2021-01-17 23:59:29
496,Hualmay,PE,-11.0964,-77.6139,70.61,70.61,81,63,9.26,broken clouds,2021-01-17 23:59:29
497,Boa Vista,BR,2.8197,-60.6733,84.2,84.2,58,20,6.91,few clouds,2021-01-17 23:55:07
498,Kadyy,RU,57.787,43.1903,-9.94,-9.94,90,43,2.68,scattered clouds,2021-01-17 23:59:29
499,Kulevcha,UA,46.0303,29.9361,19.69,19.69,97,96,6.78,overcast clouds,2021-01-17 23:59:29
500,Bereda,ES,43.2686,-7.5406,46.99,46.99,100,8,1.99,clear sky,2021-01-17 23:59:29
501,Itoman,JP,26.1247,127.6694,59.0,55.0,63,75,14.97,broken clouds,2021-01-17 23:59:29
502,Sarangani,PH,5.4033,125.4636,77.65,77.65,90,100,11.74,heavy intensity rain,2021-01-17 23:59:30
503,Kenai,US,60.5544,-151.2583,35.01,33.8,93,90,1.79,light rain,2021-01-17 23:59:30
504,Gardner,US,42.5751,-71.9981,37.0,34.0,74,52,5.01,broken clouds,2021-01-17 23:59:30
505,Udachnyy,RU,66.4167,112.4,-32.48,-32.48,81,100,1.5,overcast clouds,2021-01-17 23:59:30
506,Sorong,ID,-0.8833,131.25,81.07,81.07,76,100,3.38,overcast clouds,2021-01-17 23:59:30
507,Chitungwiza,ZW,-18.0127,31.0756,64.0,64.0,94,100,1.99,overcast clouds,2021-01-17 23:59:30
508,Camacha,PT,33.0833,-16.3333,59.0,59.0,58,75,6.91,broken clouds,2021-01-17 23:59:30
509,Abalak,RU,58.1286,68.5944,-6.7,-6.7,90,98,9.01,overcast clouds,2021-01-17 23:59:30
510,Anadyr,RU,64.75,177.4833,-14.01,-14.8,76,98,11.18,snow,2021-01-17 23:59:30
511,Tessalit,ML,20.1986,1.0114,62.53,62.53,26,3,15.5,clear sky,2021-01-17 23:59:31
512,Novyy Urgal,RU,51.0736,132.5642,-15.23,-15.23,88,98,1.54,light snow,2021-01-17 23:59:31
513,Mount Gambier,AU,-37.8333,140.7667,59.0,59.0,88,90,14.97,overcast clouds,2021-01-17 23:59:31
514,Texarkana,US,33.4251,-94.0477,55.4,48.0,30,1,12.66,clear sky,2021-01-17 23:59:31
515,Sayyan,YE,15.1718,44.3244,43.5,43.5,56,10,1.54,clear sky,2021-01-17 23:59:31
516,Asfi,MA,32.2994,-9.2372,53.94,53.94,71,0,8.7,clear sky,2021-01-17 23:59:31
517,Moranbah,AU,-22.0016,148.0466,84.65,84.65,44,23,17.65,few clouds,2021-01-17 23:59:31
518,Iracoubo,GF,5.4802,-53.2011,77.23,77.23,87,93,10.29,overcast clouds,2021-01-17 23:59:31
519,Dutse,NG,11.7594,9.3392,66.85,66.85,21,11,8.5,few clouds,2021-01-17 23:59:31
520,Port Lincoln,AU,-34.7333,135.8667,62.8,62.8,72,100,12.53,overcast clouds,2021-01-17 23:59:32
521,San Juan,AR,-31.5375,-68.5364,80.53,80.53,20,0,10.02,clear sky,2021-01-17 23:59:32
522,Whitehorse,CA,60.7161,-135.0538,28.4,23.0,86,75,16.11,snow,2021-01-17 23:59:32
523,Urengoy,RU,65.9667,78.3667,-4.41,-4.41,92,100,11.01,overcast clouds,2021-01-17 23:59:32
524,Kaohsiung,TW,22.6163,120.3133,55.99,50.0,76,20,4.61,few clouds,2021-01-17 23:57:06
525,Mamallapuram,IN,12.6264,80.1722,69.8,69.8,100,40,7.85,mist,2021-01-17 23:59:32
526,Riachao,BR,-7.3619,-46.6172,74.17,74.17,86,90,2.37,light rain,2021-01-17 23:59:32
527,Port Keats,AU,-14.25,129.55,85.35,85.35,66,70,9.15,broken clouds,2021-01-17 23:59:33
528,Senneterre,CA,48.3835,-77.2328,14.0,14.0,92,90,10.36,light snow,2021-01-17 23:59:33
529,Tazovskiy,RU,67.4667,78.7,-11.69,-11.69,89,100,15.95,overcast clouds,2021-01-17 23:59:33
530,Den Helder,NL,52.9599,4.7593,42.01,41.0,87,40,10.36,scattered clouds,2021-01-17 23:59:25
531,Lensk,RU,60.7253,114.9278,-35.59,-35.59,78,98,2.15,overcast clouds,2021-01-17 23:59:33
532,Herzogenbuchsee,CH,47.188,7.7062,33.01,33.01,92,98,1.99,overcast clouds,2021-01-17 23:59:33
533,Oranjemund,NA,-28.55,16.4333,62.69,62.69,90,0,1.39,clear sky,2021-01-17 23:59:33
534,Bastia,FR,42.6667,9.3333,48.99,44.01,87,75,3.44,broken clouds,2021-01-17 23:59:33
535,Nantucket,US,41.2835,-70.0995,41.0,39.99,60,1,25.32,clear sky,2021-01-17 23:56:37
536,Scottsbluff,US,41.8666,-103.6672,46.4,44.01,31,1,8.05,clear sky,2021-01-17 23:58:00
537,Seydi,TM,39.4816,62.9137,43.92,43.92,61,76,8.21,broken clouds,2021-01-17 23:59:33
538,Marovoay,MG,-16.1,46.6333,82.4,82.4,83,20,2.3,light rain,2021-01-17 23:59:34
539,Kamariotissa,GR,40.4833,25.4667,32.0,32.0,100,90,8.05,snow,2021-01-17 23:59:34
540,Dhidhdhoo,MV,6.8833,73.1,82.0,82.0,76,48,14.81,light rain,2021-01-17 23:59:34
541,Virginia Beach,US,36.8529,-75.978,43.0,39.99,66,80,12.97,broken clouds,2021-01-17 23:57:52
542,Te Anau,NZ,-45.4167,167.7167,46.98,46.98,89,95,3.58,moderate rain,2021-01-17 23:58:08
543,Timbiqui,CO,2.7717,-77.6654,75.31,75.31,92,81,4.97,moderate rain,2021-01-17 23:59:34
544,Bogorodskoye,RU,56.55,37.8833,-12.32,-12.32,91,17,2.04,few clouds,2021-01-17 23:59:34
545,Russellville,US,35.2784,-93.1338,50.0,50.0,37,40,11.5,scattered clouds,2021-01-17 23:59:34
546,Yeppoon,AU,-23.1333,150.7333,84.2,84.2,54,75,12.66,broken clouds,2021-01-17 23:59:35
547,Bitkine,TD,11.9801,18.2138,65.8,65.8,24,47,5.79,scattered clouds,2021-01-17 23:59:35
548,Bagakay,PH,8.1386,123.8044,76.69,76.69,87,100,2.64,overcast clouds,2021-01-17 23:59:35
549,Eyl,SO,7.9803,49.8164,71.71,71.71,75,7,10.2,clear sky,2021-01-17 23:59:35
550,Kaka,TM,37.3482,59.6143,46.09,46.09,56,70,2.39,broken clouds,2021-01-17 23:59:35
551,Vaitape,PF,-16.5167,-151.75,82.0,82.0,74,0,13.33,clear sky,2021-01-17 23:59:35
552,Ternate,ID,0.8,127.4,81.18,81.18,77,100,5.95,moderate rain,2021-01-17 23:59:35
553,Suntar,RU,62.1444,117.6319,-35.19,-35.19,82,100,4.52,overcast clouds,2021-01-17 23:59:35
554,Seoul,KR,37.5683,126.9778,26.6,23.0,86,100,4.61,overcast clouds,2021-01-17 23:59:36
555,Nuuk,GL,64.1835,-51.7216,24.8,24.8,80,90,6.91,light snow,2021-01-17 23:57:02
556,Vedea,RO,43.7833,25.7833,23.94,23.94,92,14,7.23,few clouds,2021-01-17 23:59:36
557,Freeport,US,40.6576,-73.5832,44.01,42.01,52,75,14.97,broken clouds,2021-01-17 23:54:37
558,Chebarkul,RU,54.9749,60.3633,-3.39,-3.39,88,1,8.3,clear sky,2021-01-17 23:59:36
559,Marquette,US,46.5333,-87.6335,24.01,23.0,83,100,4.0,overcast clouds,2021-01-17 23:54:53
560,Novopavlovka,RU,51.2172,109.2091,-11.07,-11.07,87,100,2.82,overcast clouds,2021-01-17 23:59:36
561,Neuquen,AR,-38.9516,-68.0591,89.6,89.6,25,0,3.44,clear sky,2021-01-17 23:59:01
562,Cap Malheureux,MU,-19.9842,57.6142,79.0,79.0,78,97,5.99,overcast clouds,2021-01-17 23:59:36
563,Isla Mujeres,MX,21.2311,-86.731,69.01,66.0,88,90,3.44,light rain,2021-01-17 23:59:36
564,Tema,GH,5.667,-0.0166,80.6,80.6,89,0,6.91,clear sky,2021-01-17 23:59:36
565,Hue,VN,16.4667,107.6,62.6,62.6,94,75,11.5,moderate rain,2021-01-17 23:59:37
566,Vila,PT,42.0304,-8.1588,39.99,39.99,87,2,1.01,clear sky,2021-01-17 23:59:37
567,Caravelas,BR,-17.7125,-39.2481,75.79,75.79,83,0,5.99,clear sky,2021-01-17 23:59:37
568,Kailua,US,21.4022,-157.7394,78.8,77.0,65,75,4.61,broken clouds,2021-01-17 23:59:37
569,Bahile,PH,9.9995,118.7878,77.0,77.0,88,90,4.61,moderate rain,2021-01-17 23:59:37
570,Waterbury,US,41.5582,-73.0515,41.0,37.99,56,90,5.75,overcast clouds,2021-01-17 23:59:37
571,Butembo,CD,0.15,29.2833,59.04,59.04,77,65,2.53,broken clouds,2021-01-17 23:59:37
572,Thunder Bay,CA,48.4001,-89.3168,19.4,19.0,63,20,4.61,few clouds,2021-01-17 23:56:15
573,Sisimiut,GL,66.9395,-53.6735,16.48,16.48,94,100,14.54,light snow,2021-01-17 23:59:37
574,Banda Aceh,ID,5.5577,95.3222,77.47,77.47,85,79,13.89,moderate rain,2021-01-17 23:59:37
575,Teknaf,BD,20.8624,92.3058,60.33,60.33,75,0,3.8,clear sky,2021-01-17 23:59:38
576,Linjiang,CN,41.8069,126.9078,6.3,6.3,89,100,5.12,overcast clouds,2021-01-17 23:59:38
577,Paita,PE,-5.0892,-81.1144,72.75,72.75,76,36,16.17,scattered clouds,2021-01-17 23:59:38
578,Simao,CN,22.7886,100.9748,43.12,43.12,94,98,2.48,overcast clouds,2021-01-17 23:59:38
579,Saint-Georges,GD,12.0564,-61.7485,77.94,77.94,80,68,15.52,broken clouds,2021-01-17 23:59:38
580,Semirom,IR,31.4167,51.5667,29.12,29.12,98,64,7.09,broken clouds,2021-01-17 23:59:38
581,Pundaguitan,PH,6.3711,126.1689,77.61,77.61,89,100,13.65,very heavy rain,2021-01-17 23:59:38
582,Acajutla,SV,13.5928,-89.8275,82.4,82.4,47,20,2.3,few clouds,2021-01-17 23:59:38
583,Petropavlovsk-Kamchatskiy,RU,53.0452,158.6483,24.8,24.8,68,75,20.13,snow,2021-01-17 23:59:38
584,Kiama,AU,-34.6833,150.8667,80.01,75.0,65,8,3.0,clear sky,2021-01-17 23:59:39
585,Quatre Cocos,MU,-20.2078,57.7625,79.0,78.8,83,40,11.5,scattered clouds,2021-01-17 23:59:39
586,Narasimharajapura,IN,13.6167,75.5167,64.38,64.38,70,0,2.35,clear sky,2021-01-17 23:59:39
587,Yarada,IN,17.65,83.2667,69.8,69.8,100,20,2.3,mist,2021-01-17 23:59:39
588,Rabo De Peixe,PT,37.8,-25.5833,61.0,60.8,88,40,20.71,scattered clouds,2021-01-17 23:59:39
589,Tanete,ID,-3.9443,119.7848,79.77,79.77,74,100,4.41,overcast clouds,2021-01-17 23:59:39
590,Aranos,NA,-24.1333,19.1167,74.41,74.41,29,60,8.81,broken clouds,2021-01-17 23:59:39
591,Guarapari,BR,-20.6667,-40.4975,78.8,77.0,78,20,10.36,few clouds,2021-01-17 23:55:45
592,Yatou,CN,37.15,122.3833,25.88,25.88,85,14,12.57,few clouds,2021-01-17 23:59:39
593,Sena Madureira,BR,-9.0656,-68.6569,77.4,77.4,88,74,2.42,light rain,2021-01-17 23:59:39
594,Petatlan,MX,17.5167,-101.2667,86.0,86.0,66,75,3.11,broken clouds,2021-01-17 23:59:40
595,Mari,BR,-7.06,-35.3194,78.8,78.8,78,0,10.36,clear sky,2021-01-17 23:59:40
596,Monrovia,LR,6.3005,-10.7969,75.2,75.2,94,40,7.45,mist,2021-01-17 23:59:40
597,Teguise,ES,29.0605,-13.564,59.0,59.0,82,20,5.75,few clouds,2021-01-17 23:59:40
598,Rancho Palos Verdes,US,33.7445,-118.387,75.99,71.01,27,0,5.01,clear sky,2021-01-17 23:59:40
599,Emba,KZ,48.8264,58.1442,18.27,18.27,92,89,7.92,overcast clouds,2021-01-17 23:59:40
600,Springbok,ZA,-29.6643,17.8865,60.91,60.91,69,0,1.41,clear sky,2021-01-17 23:59:40
601,Hays,US,30.0502,-98.0336,60.01,57.0,32,9,1.99,clear sky,2021-01-17 23:59:40
602,Kirakira,SB,-10.4544,161.9205,86.31,86.31,68,45,9.28,light rain,2021-01-17 23:59:40
603,Dubbo,AU,-32.25,148.6167,78.8,78.8,36,24,4.61,few clouds,2021-01-17 23:59:41
604,Chimore,BO,-16.9833,-65.1333,69.96,69.96,97,100,5.32,moderate rain,2021-01-17 23:59:41
605,Ardakan,IR,32.31,54.0175,41.0,41.0,56,0,2.3,clear sky,2021-01-17 23:59:41
606,Blagoveshchenka,RU,52.8333,79.8667,18.36,18.36,94,82,15.57,broken clouds,2021-01-17 23:59:41
607,Novyy Urengoy,RU,66.0833,76.6333,-10.89,-10.89,90,100,13.69,overcast clouds,2021-01-17 23:59:41
608,Bundibugyo,UG,0.7414,30.0417,70.38,70.38,57,57,3.4,broken clouds,2021-01-17 23:59:42
609,Roebourne,AU,-20.7833,117.1333,92.86,92.86,47,22,6.98,few clouds,2021-01-17 23:59:42
610,Thanh Hoa,VN,19.8,105.7667,53.35,53.35,56,41,10.69,scattered clouds,2021-01-17 23:59:42
611,Havoysund,NO,70.9963,24.6622,35.6,35.6,87,75,9.22,broken clouds,2021-01-17 23:59:42
612,Xining,CN,36.6167,101.7667,12.97,12.97,58,0,2.93,clear sky,2021-01-17 23:59:42
613,Ahipara,NZ,-35.1667,173.1667,68.52,68.52,54,27,11.34,scattered clouds,2021-01-17 23:59:42
614,Bilibino,RU,68.0546,166.4372,-28.39,-28.39,82,84,2.01,broken clouds,2021-01-17 23:59:42
615,Noumea,NC,-22.2763,166.4572,86.0,86.0,70,75,5.75,broken clouds,2021-01-17 23:59:42
616,Haines Junction,CA,60.7522,-137.5108,33.8,33.8,80,64,6.91,broken clouds,2021-01-17 23:59:42
617,San Francisco,US,37.7749,-122.4194,71.6,64.0,55,20,3.44,few clouds,2021-01-17 23:57:46
618,Sanming,CN,26.2486,117.6186,40.87,40.87,68,0,1.57,clear sky,2021-01-17 23:59:43
619,Timizart,DZ,36.8,4.2667,46.04,46.04,55,0,2.95,clear sky,2021-01-17 23:59:43
620,Sinnamary,GF,5.3833,-52.95,77.68,77.68,85,86,10.47,overcast clouds,2021-01-17 23:59:43
621,Mingyue,CN,43.1069,128.9217,3.99,3.99,83,92,10.85,overcast clouds,2021-01-17 23:59:43
622,Patan,NP,27.6667,85.3333,42.8,42.8,93,20,1.14,mist,2021-01-17 23:59:43
623,Beya,RU,53.0533,90.9139,15.15,15.15,88,34,6.2,scattered clouds,2021-01-17 23:59:43
624,Fort Frances,CA,48.5999,-93.4003,19.4,18.0,86,90,8.05,overcast clouds,2021-01-17 23:59:39
625,Petauke,ZM,-14.2426,31.3253,67.71,67.71,95,100,2.28,light rain,2021-01-17 23:59:44
626,Kasongo-Lunda,CD,-6.4667,16.8167,68.4,68.4,80,100,1.03,overcast clouds,2021-01-17 23:59:44
627,Nizhniy Kuranakh,RU,58.8353,125.4869,-48.06,-48.06,73,63,1.86,broken clouds,2021-01-17 23:59:44
628,Kirando,TZ,-7.4167,30.6,71.96,71.96,77,82,4.63,broken clouds,2021-01-17 23:59:44
629,Ferrol,ES,43.4832,-8.2369,54.0,52.0,90,50,4.99,scattered clouds,2021-01-17 23:59:44
630,Dandong,CN,40.1292,124.3947,13.93,13.93,88,100,6.87,overcast clouds,2021-01-17 23:59:44
631,Ust-Maya,RU,60.4167,134.5333,-50.12,-50.12,76,100,0.6,overcast clouds,2021-01-17 23:59:44
632,Mwanza,TZ,-2.5167,32.9,68.0,68.0,83,20,3.87,few clouds,2021-01-17 23:59:44
633,Verkhnyaya Toyma,RU,62.2349,44.9985,6.8,6.8,95,100,3.31,snow,2021-01-17 23:59:44
634,Osmaniye,TR,37.0742,36.2478,48.99,48.99,70,28,10.0,moderate rain,2021-01-17 23:59:45
635,Raudeberg,NO,61.9875,5.1352,39.0,39.0,87,85,18.57,overcast clouds,2021-01-17 23:59:45
636,Puerto Baquerizo Moreno,EC,-0.9,-89.6,75.13,75.13,88,30,9.22,scattered clouds,2021-01-17 23:59:45
637,Coahuayana,MX,18.7333,-103.6833,80.6,80.6,57,75,3.65,broken clouds,2021-01-17 23:59:45
638,Poyarkovo,RU,49.6,128.6833,-22.67,-22.67,86,98,6.29,light snow,2021-01-17 23:59:45
639,Solnechnyy,RU,50.7214,136.6319,-13.52,-13.52,86,98,1.74,overcast clouds,2021-01-17 23:59:45
640,Lagos,NG,6.5833,3.75,80.6,80.6,89,0,3.31,clear sky,2021-01-17 23:57:50
641,Calama,CL,-22.4667,-68.9333,66.2,66.2,34,0,24.16,clear sky,2021-01-17 23:59:46
642,Agogo,GH,6.8,-1.0819,73.47,73.47,83,19,6.71,few clouds,2021-01-17 23:59:46
643,Patrocinio,BR,-18.9439,-46.9925,68.0,68.0,100,100,5.35,light rain,2021-01-17 23:59:46
644,Iquique,CL,-20.2208,-70.1431,73.4,73.4,56,0,13.8,clear sky,2021-01-17 23:59:46
645,Magistralnyy,RU,56.1725,107.4458,-18.11,-18.11,83,100,4.88,overcast clouds,2021-01-17 23:59:46
646,Sonoita,MX,31.85,-112.8333,75.0,75.0,10,0,2.95,clear sky,2021-01-17 23:59:46
647,Dicabisagan,PH,17.0818,122.4157,72.91,72.91,88,100,15.68,overcast clouds,2021-01-17 23:59:46
648,Pangai,TO,-19.8,-174.35,86.0,86.0,79,20,6.91,few clouds,2021-01-17 23:59:46
649,Tilichiki,RU,60.4667,166.1,-14.84,-14.84,84,100,16.08,overcast clouds,2021-01-17 23:59:47
650,Praya,CV,14.9215,-23.5087,71.6,71.6,73,0,17.27,clear sky,2021-01-17 23:59:47
651,Verkhnyaya Inta,RU,65.9811,60.3094,-19.16,-19.16,88,100,8.7,overcast clouds,2021-01-17 23:59:47
652,Mazagao,BR,-0.115,-51.2894,84.2,84.2,79,40,6.91,scattered clouds,2021-01-17 23:59:47
653,Miranda,CO,3.2499,-76.2281,68.25,68.25,75,77,3.04,light rain,2021-01-17 23:59:47
654,Carutapera,BR,-1.195,-46.02,78.28,78.28,84,82,6.91,broken clouds,2021-01-17 23:56:20
655,Luderitz,NA,-26.6481,15.1594,63.93,63.93,80,11,9.53,few clouds,2021-01-17 23:59:47
656,Leua,SK,48.2156,18.6071,19.0,19.0,63,22,2.35,few clouds,2021-01-17 23:59:48
657,Atasu,KZ,48.6814,71.6433,14.43,14.43,89,74,3.15,broken clouds,2021-01-17 23:59:48
658,Tyubuk,RU,56.0552,60.9405,-1.73,-1.73,89,1,11.3,clear sky,2021-01-17 23:59:48
659,Kashan,IR,33.9831,51.4364,45.21,45.21,60,52,2.15,broken clouds,2021-01-17 23:59:48
660,Birjand,IR,32.8663,59.2211,39.2,39.2,26,0,3.78,clear sky,2021-01-17 23:59:48
661,Kattivakkam,IN,13.2167,80.3167,69.8,69.8,100,40,6.44,mist,2021-01-17 23:59:48
662,Ranau,MY,5.9538,116.6641,71.6,71.6,100,40,5.75,scattered clouds,2021-01-17 23:59:48
663,Rabaul,PG,-4.1967,152.1721,82.71,82.71,68,52,1.74,broken clouds,2021-01-17 23:59:48
664,Severiano Melo,BR,-5.7772,-37.9578,78.48,78.48,74,98,10.36,overcast clouds,2021-01-17 23:59:48
665,Collie,AU,-33.3667,116.15,76.66,76.66,27,46,11.65,scattered clouds,2021-01-17 23:59:48
666,Mandera,KE,3.9366,41.867,78.73,78.73,31,67,8.39,broken clouds,2021-01-17 23:59:49
667,Zhigansk,RU,66.7697,123.3711,-48.14,-48.14,77,70,4.79,broken clouds,2021-01-17 23:59:49
668,Harindanga,IN,22.0383,88.3214,55.4,55.4,94,1,3.02,mist,2021-01-17 23:59:49
669,Malakal,SS,9.5334,31.6605,77.72,77.72,21,11,8.39,few clouds,2021-01-17 23:59:49
670,Santa Rita Do Passa Quatro,BR,-21.7103,-47.4781,71.6,71.6,94,90,2.3,overcast clouds,2021-01-17 23:59:12
671,Thyboron,DK,56.6985,8.2124,30.99,30.0,91,87,1.01,overcast clouds,2021-01-17 23:59:49
672,Naze,JP,28.3667,129.4833,51.8,51.8,76,40,6.91,scattered clouds,2021-01-17 23:59:49
673,Jizan,SA,17.3333,42.6667,77.0,77.0,83,20,3.44,few clouds,2021-01-17 23:59:21
674,Manta,EC,-0.95,-80.7333,82.4,82.4,69,40,9.22,scattered clouds,2021-01-17 23:56:19
675,Sungaipenuh,ID,-2.0833,101.3833,65.77,65.77,94,100,3.04,overcast clouds,2021-01-17 23:59:50
676,Ola,RU,59.5833,151.2833,-11.43,-11.43,87,100,16.2,light snow,2021-01-17 23:59:50
677,Gold Coast,AU,-28.0,153.4333,79.0,75.99,83,75,9.22,broken clouds,2021-01-17 23:58:58
678,Sao Teotonio,PT,37.5128,-8.7071,43.0,43.0,31,28,1.99,scattered clouds,2021-01-17 23:59:50
679,Kilifi,KE,-3.6305,39.8499,76.6,76.6,89,68,6.29,broken clouds,2021-01-17 23:59:50
680,Wanning,CN,18.8003,110.3967,54.63,54.63,70,1,14.25,clear sky,2021-01-17 23:59:50
